[
    {
        "name": "801 Local",
        "image_url": "https://s3-media1.fl.yelpcdn.com/bphoto/AlAwA9CwM5mCx5TnIGZTXg/o.jpg",
        "location": {
            "address1": "2021 South Lindbergh Blvd",
            "zip_Code": null,
            "city": "Frontenac",
            "state": "MO"
        }
    },
    {
        "name": "BrickTop's",
        "image_url": "https://s3-media3.fl.yelpcdn.com/bphoto/bmKYMGxVwf_9z6AIUeV5bA/o.jpg",
        "location": {
            "address1": "10342 Clayton Rd",
            "zip_Code": null,
            "city": "Frontenac",
            "state": "MO"
        }
    },
    {
        "name": "Kreis' Steakhouse",
        "image_url": "https://s3-media1.fl.yelpcdn.com/bphoto/3iUq6odXgUKFPkeH2kE56g/o.jpg",
        "location": {
            "address1": "535 S Lindbergh Blvd",
            "zip_Code": null,
            "city": "Saint Louis",
            "state": "MO"
        }
    },
    {
        "name": "J Gilbert's",
        "image_url": "https://s3-media1.fl.yelpcdn.com/bphoto/EFBoX4S7SgR4efoEkP-sUw/o.jpg",
        "location": {
            "address1": "17A W County Ctr",
            "zip_Code": null,
            "city": "Des Peres",
            "state": "MO"
        }
    },
    {
        "name": "Flemingâ€™s Prime Steakhouse & Wine Bar",
        "image_url": "https://s3-media1.fl.yelpcdn.com/bphoto/KvvDzSelTofCYVpwdNl-LQ/o.jpg",
        "location": {
            "address1": "1855 S",
            "zip_Code": null,
            "city": "St. Louis",
            "state": "MO"
        }
    },
    {
        "name": "Carreta's Mexican Restaurant",
        "image_url": "https://s3-media2.fl.yelpcdn.com/bphoto/MDJdBnWOfA8_2mKBlozasg/o.jpg",
        "location": {
            "address1": "11939 Olive Blvd St",
            "zip_Code": null,
            "city": "St. Louis",
            "state": "MO"
        }
    },
    {
        "name": "Bristol Seafood Grill",
        "image_url": "https://s3-media1.fl.yelpcdn.com/bphoto/pqg4jCPJ2El9NW2iwBC54Q/o.jpg",
        "location": {
            "address1": "11801 Olive Blvd",
            "zip_Code": null,
            "city": "Creve Coeur",
            "state": "MO"
        }
    },
    {
        "name": "Shack Breakfast & Lunch",
        "image_url": "https://s3-media4.fl.yelpcdn.com/bphoto/e6vuo8oeRn1AkYgGkGfeOg/o.jpg",
        "location": {
            "address1": "731 S Lindbergh Blvd",
            "zip_Code": null,
            "city": "Frontenac",
            "state": "MO"
        }
    },
    {
        "name": "Twisted Tree",
        "image_url": "https://s3-media1.fl.yelpcdn.com/bphoto/46A0wAQ6DkFFYh2nuRVMZg/o.jpg",
        "location": {
            "address1": "10701 Watson Rd",
            "zip_Code": null,
            "city": "Saint Louis",
            "state": "MO"
        }
    },
    {
        "name": "Sugarfire Smoke House",
        "image_url": "https://s3-media4.fl.yelpcdn.com/bphoto/lFajL-DRFY01dk-fNQNhcA/o.jpg",
        "location": {
            "address1": "9200 Olive Blvd",
            "zip_Code": null,
            "city": "Saint Louis",
            "state": "MO"
        }
    },
    {
        "name": "Katie's Pizza & Pasta Osteria -Rock Hill",
        "image_url": "https://s3-media1.fl.yelpcdn.com/bphoto/bRFNWRHEuG_aIV49kXhQaw/o.jpg",
        "location": {
            "address1": "9568 Manchester Rd",
            "zip_Code": null,
            "city": "Saint Louis",
            "state": "MO"
        }
    },
    {
        "name": "Circle 7 Ranch",
        "image_url": "https://s3-media2.fl.yelpcdn.com/bphoto/Pj3I9jth_YEyBR0ZYVPz5g/o.jpg",
        "location": {
            "address1": "11769 Manchester Rd",
            "zip_Code": null,
            "city": "St. Louis",
            "state": "MO"
        }
    },
    {
        "name": "Nudo House STL",
        "image_url": "https://s3-media3.fl.yelpcdn.com/bphoto/7EmWCXRBkWRjuel92Lk77w/o.jpg",
        "location": {
            "address1": "11423 Olive Blvd",
            "zip_Code": null,
            "city": "St. Louis",
            "state": "MO"
        }
    },
    {
        "name": "Truffles",
        "image_url": "https://s3-media3.fl.yelpcdn.com/bphoto/02F-7WFiEXZih_eP2_1NZQ/o.jpg",
        "location": {
            "address1": "9202 Clayton Rd",
            "zip_Code": null,
            "city": "Saint Louis",
            "state": "MO"
        }
    },
    {
        "name": "Brio Italian Grille",
        "image_url": "https://s3-media2.fl.yelpcdn.com/bphoto/F5GtGMtyVjNRVGrGkjPGQQ/o.jpg",
        "location": {
            "address1": "1601 S Lindbergh Blvd",
            "zip_Code": null,
            "city": "St. Louis",
            "state": "MO"
        }
    },
    {
        "name": "Tradicional 314",
        "image_url": "https://s3-media2.fl.yelpcdn.com/bphoto/djglh3iyYh4cNT7tHnmVzw/o.jpg",
        "location": {
            "address1": "810 N New Ballas Rd",
            "zip_Code": null,
            "city": "Creve Coeur",
            "state": "MO"
        }
    },
    {
        "name": "Grassi's Ristorante & Deli",
        "image_url": "https://s3-media1.fl.yelpcdn.com/bphoto/SYMn3s5UPY01FbDKzPKo8g/o.jpg",
        "location": {
            "address1": "10450 German Blvd",
            "zip_Code": null,
            "city": "Frontenac",
            "state": "MO"
        }
    },
    {
        "name": "Tai Ke Shabu Shabu",
        "image_url": "https://s3-media4.fl.yelpcdn.com/bphoto/CXf_zSDBmkVxGvAWamI8kA/o.jpg",
        "location": {
            "address1": "9626 Olive Blvd",
            "zip_Code": null,
            "city": "Olivette",
            "state": "MO"
        }
    },
    {
        "name": "Olive + Oak",
        "image_url": "https://s3-media4.fl.yelpcdn.com/bphoto/uNgozkKMzm7K2xlYeDGmZg/o.jpg",
        "location": {
            "address1": "216 W Lockwood Ave",
            "zip_Code": null,
            "city": "Saint Louis",
            "state": "MO"
        }
    },
    {
        "name": "Salt + Smoke",
        "image_url": "https://s3-media2.fl.yelpcdn.com/bphoto/tZgXfNPXJ3-7pA0KVLlfuw/o.jpg",
        "location": {
            "address1": "6525 Delmar Blvd",
            "zip_Code": null,
            "city": "Saint Louis",
            "state": "MO"
        }
    }
]